[
  {
    "name" : "Fab Lab Cidade Tiradentes",
    "address" : "Av. Inácio Monteiro, 6900, Cidade Tiradentes",
    "latitude" : -23.5801259,
    "longitude" : -46.3898429,
    "category" : "laboratorio"
  },
  {
    "name" : "Fab Lab CEU Heliópolis",
    "address" : "Estrada das Lágrimas, 2385, Heliópolis",
    "latitude" : -23.6221722,
    "longitude" : -46.5907948,
    "category" : "laboratorio"
  },
  {
    "name" : "Fab Lab Chácara do Jóckey",
    "address" : "Rua Santa Crescencia, 323, Butantã",
    "latitude" : -23.5982488,
    "longitude" : -46.7443205,
    "category" : "laboratorio"
  },
  {
    "name" : "Fab Lab Vila Itororó",
    "address" : "Rua Pedroso, 238, Bela Vista",
    "latitude" : -23.561983,
    "longitude" : -46.6410815,
    "category" : "laboratorio"
  },
  {
    "name" : "Fab Lab Galeria Olido",
    "address" : "Avenida São João, 473, Centro",
    "latitude" : -23.5434534,
    "longitude" : -46.6390541,
    "category" : "laboratorio"
  },
  {
    "name" : "Fab Lab Itaquera",
    "address" : "Rua Antônio Carlos de Oliveira Cesar, 97, Itaquera",
    "latitude" : -23.5357699,
    "longitude" : -46.45534070000001,
    "category" : "laboratorio"
  },
  {
    "name" : "Fab Lab Penha",
    "address" : "Largo do Rosário, 20, Penha",
    "latitude" : -23.5258714,
    "longitude" : -46.5484253,
    "category" : "laboratorio"
  },
  {
    "name" : "Fab Lab CCSP",
    "address" : "Rua Vergueiro, 1000, Paraíso",
    "latitude" : -23.5714751,
    "longitude" : -46.6402144,
    "category" : "laboratorio"
  },
  {
    "name" : "Fab Lab São Joaquim",
    "address" : "Rua Bacabinha, 280, Jardim São Joaquim",
    "latitude" : -23.6869926,
    "longitude" : -46.7495015,
    "category" : "laboratorio"
  },
  {
    "name" : "Fab Lab CEU Anhanguera",
    "address" : "R. Pedro José de Lima, 1020, Anhanguera",
    "latitude" : -23.4397843,
    "longitude" : -46.7871379,
    "category" : "laboratorio"
  },
  {
    "name" : "Fab Lab CCJ",
    "address" : "Av. Dep. Emílio Carlos, 3641, Limão",
    "latitude" : -23.4760977,
    "longitude" : -46.6702593,
    "category" : "laboratorio"
  },
  {
    "name" : "Fab Lab CEU 3 Pontes",
    "address" : "Rua Capachós, 400, Jardim Célia",
    "latitude" : -23.478372,
    "longitude" : -46.3813019,
    "category" : "laboratorio"
  }
]
